[{"lat":36.043954,"lng":-79.400573,"dem_votes":38825,"rep_votes":46056,"total_votes":86091,"precinct_id":"37001","precinct_name":"ALAMANCE, NC"},{"lat":35.920951,"lng":-81.177467,"dem_votes":4145,"rep_votes":15888,"total_votes":20236,"precinct_id":"37003","precinct_name":"ALEXANDER, NC"},{"lat":36.489356,"lng":-81.132299,"dem_votes":1486,"rep_votes":4527,"total_votes":6076,"precinct_id":"37005","precinct_name":"ALLEGHANY, NC"},{"lat":34.974972,"lng":-80.109763,"dem_votes":5789,"rep_votes":5321,"total_votes":11194,"precinct_id":"37007","precinct_name":"ANSON, NC"},{"lat":36.443469,"lng":-81.499334,"dem_votes":4164,"rep_votes":11451,"total_votes":15814,"precinct_id":"37009","precinct_name":"ASHE, NC"},{"lat":36.07209,"lng":-81.920285,"dem_votes":2191,"rep_votes":7172,"total_votes":9458,"precinct_id":"37011","precinct_name":"AVERY, NC"},{"lat":35.482313,"lng":-76.842014,"dem_votes":9633,"rep_votes":16437,"total_votes":26315,"precinct_id":"37013","precinct_name":"BEAUFORT, NC"},{"lat":36.059043,"lng":-76.962364,"dem_votes":5939,"rep_votes":3817,"total_votes":9815,"precinct_id":"37015","precinct_name":"BERTIE, NC"},{"lat":34.591938,"lng":-78.539489,"dem_votes":7326,"rep_votes":9676,"total_votes":17125,"precinct_id":"37017","precinct_name":"BLADEN, NC"},{"lat":34.038754,"lng":-78.227765,"dem_votes":33310,"rep_votes":55850,"total_votes":90175,"precinct_id":"37019","precinct_name":"BRUNSWICK, NC"},{"lat":35.609371,"lng":-82.530423,"dem_votes":96515,"rep_votes":62412,"total_votes":161569,"precinct_id":"37021","precinct_name":"BUNCOMBE, NC"},{"lat":35.746182,"lng":-81.70618,"dem_votes":13118,"rep_votes":31019,"total_votes":44602,"precinct_id":"37023","precinct_name":"BURKE, NC"},{"lat":35.388346,"lng":-80.552728,"dem_votes":52162,"rep_votes":63237,"total_votes":117227,"precinct_id":"37025","precinct_name":"CABARRUS, NC"},{"lat":35.966396,"lng":-81.51254,"dem_votes":10245,"rep_votes":32119,"total_votes":42829,"precinct_id":"37027","precinct_name":"CALDWELL, NC"},{"lat":36.342344,"lng":-76.162488,"dem_votes":1537,"rep_votes":4312,"total_votes":5953,"precinct_id":"37029","precinct_name":"CAMDEN, NC"},{"lat":34.858343,"lng":-76.53586,"dem_votes":12093,"rep_votes":30028,"total_votes":42695,"precinct_id":"37031","precinct_name":"CARTERET, NC"},{"lat":36.394298,"lng":-79.339609,"dem_votes":4860,"rep_votes":7089,"total_votes":12051,"precinct_id":"37033","precinct_name":"CASWELL, NC"},{"lat":35.661883,"lng":-81.214906,"dem_votes":25689,"rep_votes":56588,"total_votes":83425,"precinct_id":"37035","precinct_name":"CATAWBA, NC"},{"lat":35.704994,"lng":-79.251454,"dem_votes":26787,"rep_votes":21186,"total_votes":48599,"precinct_id":"37037","precinct_name":"CHATHAM, NC"},{"lat":35.13715,"lng":-84.061449,"dem_votes":3583,"rep_votes":12628,"total_votes":16423,"precinct_id":"37039","precinct_name":"CHEROKEE, NC"},{"lat":36.128979,"lng":-76.602752,"dem_votes":3247,"rep_votes":4471,"total_votes":7784,"precinct_id":"37041","precinct_name":"CHOWAN, NC"},{"lat":35.052997,"lng":-83.752264,"dem_votes":1699,"rep_votes":5112,"total_votes":6893,"precinct_id":"37043","precinct_name":"CLAY, NC"},{"lat":35.33463,"lng":-81.557114,"dem_votes":16955,"rep_votes":33798,"total_votes":51308,"precinct_id":"37045","precinct_name":"CLEVELAND, NC"},{"lat":34.261602,"lng":-78.639308,"dem_votes":9446,"rep_votes":16832,"total_votes":26446,"precinct_id":"37047","precinct_name":"COLUMBUS, NC"},{"lat":35.116829,"lng":-77.08132,"dem_votes":21148,"rep_votes":31032,"total_votes":53065,"precinct_id":"37049","precinct_name":"CRAVEN, NC"},{"lat":35.050192,"lng":-78.828719,"dem_votes":84469,"rep_votes":60032,"total_votes":147150,"precinct_id":"37051","precinct_name":"CUMBERLAND, NC"},{"lat":36.372174,"lng":-75.941224,"dem_votes":4195,"rep_votes":11657,"total_votes":16147,"precinct_id":"37053","precinct_name":"CURRITUCK, NC"},{"lat":35.606269,"lng":-75.767536,"dem_votes":9936,"rep_votes":13938,"total_votes":24232,"precinct_id":"37055","precinct_name":"DARE, NC"},{"lat":35.795131,"lng":-80.207107,"dem_votes":22636,"rep_votes":64658,"total_votes":88514,"precinct_id":"37057","precinct_name":"DAVIDSON, NC"},{"lat":35.929355,"lng":-80.542552,"dem_votes":6713,"rep_votes":18228,"total_votes":25311,"precinct_id":"37059","precinct_name":"DAVIE, NC"},{"lat":34.934403,"lng":-77.933543,"dem_votes":8767,"rep_votes":13793,"total_votes":22715,"precinct_id":"37061","precinct_name":"DUPLIN, NC"},{"lat":36.033828,"lng":-78.878125,"dem_votes":144688,"rep_votes":32459,"total_votes":179914,"precinct_id":"37063","precinct_name":"DURHAM, NC"},{"lat":35.917077,"lng":-77.602742,"dem_votes":16089,"rep_votes":9206,"total_votes":25477,"precinct_id":"37065","precinct_name":"EDGECOMBE, NC"},{"lat":36.132466,"lng":-80.256961,"dem_votes":113033,"rep_votes":85064,"total_votes":201270,"precinct_id":"37067","precinct_name":"FORSYTH, NC"},{"lat":36.088241,"lng":-78.28309,"dem_votes":15879,"rep_votes":20901,"total_votes":37351,"precinct_id":"37069","precinct_name":"FRANKLIN, NC"},{"lat":35.293344,"lng":-81.177256,"dem_votes":40959,"rep_votes":73033,"total_votes":115498,"precinct_id":"37071","precinct_name":"GASTON, NC"},{"lat":36.442135,"lng":-76.702355,"dem_votes":2546,"rep_votes":3367,"total_votes":5971,"precinct_id":"37073","precinct_name":"GATES, NC"},{"lat":35.348364,"lng":-83.830915,"dem_votes":905,"rep_votes":3710,"total_votes":4665,"precinct_id":"37075","precinct_name":"GRAHAM, NC"},{"lat":36.299884,"lng":-78.657634,"dem_votes":14565,"rep_votes":16647,"total_votes":31598,"precinct_id":"37077","precinct_name":"GRANVILLE, NC"},{"lat":35.481959,"lng":-77.681688,"dem_votes":3832,"rep_votes":4874,"total_votes":8753,"precinct_id":"37079","precinct_name":"GREENE, NC"},{"lat":36.079065,"lng":-79.788665,"dem_votes":173086,"rep_votes":107294,"total_votes":284486,"precinct_id":"37081","precinct_name":"GUILFORD, NC"},{"lat":36.251438,"lng":-77.644842,"dem_votes":15545,"rep_votes":10080,"total_votes":25759,"precinct_id":"37083","precinct_name":"HALIFAX, NC"},{"lat":35.36866,"lng":-78.871665,"dem_votes":22093,"rep_votes":35177,"total_votes":58293,"precinct_id":"37085","precinct_name":"HARNETT, NC"},{"lat":35.558882,"lng":-82.981307,"dem_votes":13144,"rep_votes":22834,"total_votes":36542,"precinct_id":"37087","precinct_name":"HAYWOOD, NC"},{"lat":35.336427,"lng":-82.479583,"dem_votes":27211,"rep_votes":40032,"total_votes":68371,"precinct_id":"37089","precinct_name":"HENDERSON, NC"},{"lat":36.363517,"lng":-76.981616,"dem_votes":7097,"rep_votes":3479,"total_votes":10634,"precinct_id":"37091","precinct_name":"HERTFORD, NC"},{"lat":35.017233,"lng":-79.241964,"dem_votes":11804,"rep_votes":9453,"total_votes":21639,"precinct_id":"37093","precinct_name":"HOKE, NC"},{"lat":35.408157,"lng":-76.153687,"dem_votes":1046,"rep_votes":1418,"total_votes":2492,"precinct_id":"37095","precinct_name":"HYDE, NC"},{"lat":35.806251,"lng":-80.874524,"dem_votes":33888,"rep_votes":67010,"total_votes":102371,"precinct_id":"37097","precinct_name":"IREDELL, NC"},{"lat":35.285454,"lng":-83.123966,"dem_votes":9591,"rep_votes":11356,"total_votes":21428,"precinct_id":"37099","precinct_name":"JACKSON, NC"},{"lat":35.513419,"lng":-78.367348,"dem_votes":41257,"rep_votes":68353,"total_votes":111357,"precinct_id":"37101","precinct_name":"JOHNSTON, NC"},{"lat":35.032268,"lng":-77.356195,"dem_votes":2197,"rep_votes":3280,"total_votes":5525,"precinct_id":"37103","precinct_name":"JONES, NC"},{"lat":35.476336,"lng":-79.172117,"dem_votes":12143,"rep_votes":16469,"total_votes":29008,"precinct_id":"37105","precinct_name":"LEE, NC"},{"lat":35.240066,"lng":-77.635514,"dem_votes":13605,"rep_votes":14590,"total_votes":28409,"precinct_id":"37107","precinct_name":"LENOIR, NC"},{"lat":35.488491,"lng":-81.226893,"dem_votes":13274,"rep_votes":36341,"total_votes":50217,"precinct_id":"37109","precinct_name":"LINCOLN, NC"},{"lat":35.152959,"lng":-83.421901,"dem_votes":6230,"rep_votes":14211,"total_votes":20743,"precinct_id":"37113","precinct_name":"MACON, NC"},{"lat":35.864206,"lng":-82.712631,"dem_votes":4901,"rep_votes":7979,"total_votes":13076,"precinct_id":"37115","precinct_name":"MADISON, NC"},{"lat":35.847301,"lng":-77.119602,"dem_votes":5911,"rep_votes":6532,"total_votes":12540,"precinct_id":"37117","precinct_name":"MARTIN, NC"},{"lat":35.682271,"lng":-82.048044,"dem_votes":5832,"rep_votes":16883,"total_votes":23003,"precinct_id":"37111","precinct_name":"MCDOWELL, NC"},{"lat":35.246862,"lng":-80.833832,"dem_votes":378107,"rep_votes":179211,"total_votes":567053,"precinct_id":"37119","precinct_name":"MECKLENBURG, NC"},{"lat":36.013102,"lng":-82.163554,"dem_votes":1867,"rep_votes":7090,"total_votes":9041,"precinct_id":"37121","precinct_name":"MITCHELL, NC"},{"lat":35.327548,"lng":-79.910752,"dem_votes":4327,"rep_votes":8411,"total_votes":12849,"precinct_id":"37123","precinct_name":"MONTGOMERY, NC"},{"lat":35.308273,"lng":-79.492723,"dem_votes":20779,"rep_votes":36764,"total_votes":58339,"precinct_id":"37125","precinct_name":"MOORE, NC"},{"lat":35.965945,"lng":-77.987555,"dem_votes":25947,"rep_votes":25827,"total_votes":52271,"precinct_id":"37127","precinct_name":"NASH, NC"},{"lat":34.183445,"lng":-77.864204,"dem_votes":66138,"rep_votes":63331,"total_votes":131830,"precinct_id":"37129","precinct_name":"NEW HANOVER, NC"},{"lat":36.421774,"lng":-77.398352,"dem_votes":6069,"rep_votes":3989,"total_votes":10110,"precinct_id":"37131","precinct_name":"NORTHAMPTON, NC"},{"lat":34.763109,"lng":-77.499469,"dem_votes":24266,"rep_votes":46078,"total_votes":72235,"precinct_id":"37133","precinct_name":"ONSLOW, NC"},{"lat":36.062525,"lng":-79.120033,"dem_votes":63594,"rep_votes":20176,"total_votes":84997,"precinct_id":"37135","precinct_name":"ORANGE, NC"},{"lat":35.147575,"lng":-76.665268,"dem_votes":2713,"rep_votes":4849,"total_votes":7631,"precinct_id":"37137","precinct_name":"PAMLICO, NC"},{"lat":36.265199,"lng":-76.260691,"dem_votes":9832,"rep_votes":9770,"total_votes":19897,"precinct_id":"37139","precinct_name":"PASQUOTANK, NC"},{"lat":34.512556,"lng":-77.888106,"dem_votes":11723,"rep_votes":21956,"total_votes":34169,"precinct_id":"37141","precinct_name":"PENDER, NC"},{"lat":36.180897,"lng":-76.403244,"dem_votes":2492,"rep_votes":4903,"total_votes":7484,"precinct_id":"37143","precinct_name":"PERQUIMANS, NC"},{"lat":36.386356,"lng":-78.96563,"dem_votes":8465,"rep_votes":13184,"total_votes":21894,"precinct_id":"37145","precinct_name":"PERSON, NC"},{"lat":35.59249,"lng":-77.372739,"dem_votes":47252,"rep_votes":38982,"total_votes":87573,"precinct_id":"37147","precinct_name":"PITT, NC"},{"lat":35.277901,"lng":-82.167621,"dem_votes":4518,"rep_votes":7689,"total_votes":12358,"precinct_id":"37149","precinct_name":"POLK, NC"},{"lat":35.709915,"lng":-79.806215,"dem_votes":15618,"rep_votes":56894,"total_votes":73316,"precinct_id":"37151","precinct_name":"RANDOLPH, NC"},{"lat":35.004636,"lng":-79.755695,"dem_votes":8754,"rep_votes":11830,"total_votes":20763,"precinct_id":"37153","precinct_name":"RICHMOND, NC"},{"lat":34.63921,"lng":-79.100881,"dem_votes":19020,"rep_votes":27806,"total_votes":47188,"precinct_id":"37155","precinct_name":"ROBESON, NC"},{"lat":36.381806,"lng":-79.782754,"dem_votes":15992,"rep_votes":31301,"total_votes":47809,"precinct_id":"37157","precinct_name":"ROCKINGHAM, NC"},{"lat":35.641355,"lng":-80.521721,"dem_votes":23114,"rep_votes":49297,"total_votes":73408,"precinct_id":"37159","precinct_name":"ROWAN, NC"},{"lat":35.402747,"lng":-81.919582,"dem_votes":9135,"rep_votes":24891,"total_votes":34429,"precinct_id":"37161","precinct_name":"RUTHERFORD, NC"},{"lat":34.989298,"lng":-78.371261,"dem_votes":10966,"rep_votes":17411,"total_votes":28618,"precinct_id":"37163","precinct_name":"SAMPSON, NC"},{"lat":34.840023,"lng":-79.477337,"dem_votes":7186,"rep_votes":7473,"total_votes":14775,"precinct_id":"37165","precinct_name":"SCOTLAND, NC"},{"lat":35.310449,"lng":-80.254374,"dem_votes":8129,"rep_votes":25458,"total_votes":33939,"precinct_id":"37167","precinct_name":"STANLY, NC"},{"lat":36.393797,"lng":-80.269921,"dem_votes":5286,"rep_votes":20142,"total_votes":25701,"precinct_id":"37169","precinct_name":"STOKES, NC"},{"lat":36.415416,"lng":-80.686463,"dem_votes":8721,"rep_votes":27538,"total_votes":36638,"precinct_id":"37171","precinct_name":"SURRY, NC"},{"lat":35.568849,"lng":-83.465614,"dem_votes":2780,"rep_votes":4161,"total_votes":7068,"precinct_id":"37173","precinct_name":"SWAIN, NC"},{"lat":35.210103,"lng":-82.816666,"dem_votes":8444,"rep_votes":11636,"total_votes":20404,"precinct_id":"37175","precinct_name":"TRANSYLVANIA, NC"},{"lat":35.87042,"lng":-76.165345,"dem_votes":758,"rep_votes":1044,"total_votes":1817,"precinct_id":"37177","precinct_name":"TYRRELL, NC"},{"lat":34.99182,"lng":-80.530426,"dem_votes":48725,"rep_votes":80382,"total_votes":131011,"precinct_id":"37179","precinct_name":"UNION, NC"},{"lat":36.365481,"lng":-78.405434,"dem_votes":12431,"rep_votes":8391,"total_votes":20999,"precinct_id":"37181","precinct_name":"VANCE, NC"},{"lat":35.789846,"lng":-78.650624,"dem_votes":393336,"rep_votes":226197,"total_votes":631830,"precinct_id":"37183","precinct_name":"WAKE, NC"},{"lat":36.398105,"lng":-78.099899,"dem_votes":6400,"rep_votes":3752,"total_votes":10293,"precinct_id":"37185","precinct_name":"WARREN, NC"},{"lat":35.844713,"lng":-76.572291,"dem_votes":3396,"rep_votes":2781,"total_votes":6205,"precinct_id":"37187","precinct_name":"WASHINGTON, NC"},{"lat":36.235368,"lng":-81.709888,"dem_votes":17122,"rep_votes":14451,"total_votes":32220,"precinct_id":"37189","precinct_name":"WATAUGA, NC"},{"lat":35.35419,"lng":-78.00867,"dem_votes":24215,"rep_votes":30709,"total_votes":55537,"precinct_id":"37191","precinct_name":"WAYNE, NC"},{"lat":36.208883,"lng":-81.166095,"dem_votes":7511,"rep_votes":27592,"total_votes":35466,"precinct_id":"37193","precinct_name":"WILKES, NC"},{"lat":35.700357,"lng":-77.921598,"dem_votes":20754,"rep_votes":19581,"total_votes":40735,"precinct_id":"37195","precinct_name":"WILSON, NC"},{"lat":36.158765,"lng":-80.665164,"dem_votes":3763,"rep_votes":15933,"total_votes":19923,"precinct_id":"37197","precinct_name":"YADKIN, NC"},{"lat":35.889326,"lng":-82.303954,"dem_votes":3688,"rep_votes":7516,"total_votes":11352,"precinct_id":"37199","precinct_name":"YANCEY, NC"}]