[{"lat":36.043954,"lng":-79.400573,"dem_votes":17459,"rep_votes":29305,"total_votes":47091,"precinct_id":"37001","precinct_name":"ALAMANCE, NC"},{"lat":35.920951,"lng":-81.177467,"dem_votes":4166,"rep_votes":9242,"total_votes":13492,"precinct_id":"37003","precinct_name":"ALEXANDER, NC"},{"lat":36.489356,"lng":-81.132299,"dem_votes":1715,"rep_votes":2531,"total_votes":4313,"precinct_id":"37005","precinct_name":"ALLEGHANY, NC"},{"lat":34.974972,"lng":-80.109763,"dem_votes":4792,"rep_votes":3161,"total_votes":7985,"precinct_id":"37007","precinct_name":"ANSON, NC"},{"lat":36.443469,"lng":-81.499334,"dem_votes":4011,"rep_votes":6226,"total_votes":10316,"precinct_id":"37009","precinct_name":"ASHE, NC"},{"lat":36.07209,"lng":-81.920285,"dem_votes":1686,"rep_votes":4956,"total_votes":6694,"precinct_id":"37011","precinct_name":"AVERY, NC"},{"lat":35.482313,"lng":-76.842014,"dem_votes":6634,"rep_votes":10531,"total_votes":17313,"precinct_id":"37013","precinct_name":"BEAUFORT, NC"},{"lat":36.059043,"lng":-76.962364,"dem_votes":4660,"rep_votes":2488,"total_votes":7176,"precinct_id":"37015","precinct_name":"BERTIE, NC"},{"lat":34.591938,"lng":-78.539489,"dem_votes":5889,"rep_votes":4977,"total_votes":10908,"precinct_id":"37017","precinct_name":"BLADEN, NC"},{"lat":34.038754,"lng":-78.227765,"dem_votes":13118,"rep_votes":15427,"total_votes":28839,"precinct_id":"37019","precinct_name":"BRUNSWICK, NC"},{"lat":35.609371,"lng":-82.530423,"dem_votes":38545,"rep_votes":46101,"total_votes":85476,"precinct_id":"37021","precinct_name":"BUNCOMBE, NC"},{"lat":35.746182,"lng":-81.70618,"dem_votes":11924,"rep_votes":18466,"total_votes":30658,"precinct_id":"37023","precinct_name":"BURKE, NC"},{"lat":35.388346,"lng":-80.552728,"dem_votes":16284,"rep_votes":32704,"total_votes":49381,"precinct_id":"37025","precinct_name":"CABARRUS, NC"},{"lat":35.966396,"lng":-81.51254,"dem_votes":8588,"rep_votes":17337,"total_votes":26115,"precinct_id":"37027","precinct_name":"CALDWELL, NC"},{"lat":36.342344,"lng":-76.162488,"dem_votes":1187,"rep_votes":1628,"total_votes":2831,"precinct_id":"37029","precinct_name":"CAMDEN, NC"},{"lat":34.858343,"lng":-76.53586,"dem_votes":8839,"rep_votes":17381,"total_votes":26461,"precinct_id":"37031","precinct_name":"CARTERET, NC"},{"lat":36.394298,"lng":-79.339609,"dem_votes":4091,"rep_votes":4270,"total_votes":8422,"precinct_id":"37033","precinct_name":"CASWELL, NC"},{"lat":35.661883,"lng":-81.214906,"dem_votes":16246,"rep_votes":34244,"total_votes":50841,"precinct_id":"37035","precinct_name":"CATAWBA, NC"},{"lat":35.704994,"lng":-79.251454,"dem_votes":10461,"rep_votes":10248,"total_votes":20931,"precinct_id":"37037","precinct_name":"CHATHAM, NC"},{"lat":35.13715,"lng":-84.061449,"dem_votes":3239,"rep_votes":6305,"total_votes":9674,"precinct_id":"37039","precinct_name":"CHEROKEE, NC"},{"lat":36.128979,"lng":-76.602752,"dem_votes":2430,"rep_votes":2415,"total_votes":4890,"precinct_id":"37041","precinct_name":"CHOWAN, NC"},{"lat":35.052997,"lng":-83.752264,"dem_votes":1361,"rep_votes":2416,"total_votes":3852,"precinct_id":"37043","precinct_name":"CLAY, NC"},{"lat":35.33463,"lng":-81.557114,"dem_votes":13455,"rep_votes":19064,"total_votes":32746,"precinct_id":"37045","precinct_name":"CLEVELAND, NC"},{"lat":34.261602,"lng":-78.639308,"dem_votes":9986,"rep_votes":8342,"total_votes":18425,"precinct_id":"37047","precinct_name":"COLUMBUS, NC"},{"lat":35.116829,"lng":-77.08132,"dem_votes":12213,"rep_votes":19494,"total_votes":31985,"precinct_id":"37049","precinct_name":"CRAVEN, NC"},{"lat":35.050192,"lng":-78.828719,"dem_votes":38626,"rep_votes":38129,"total_votes":77151,"precinct_id":"37051","precinct_name":"CUMBERLAND, NC"},{"lat":36.372174,"lng":-75.941224,"dem_votes":2595,"rep_votes":4095,"total_votes":6739,"precinct_id":"37053","precinct_name":"CURRITUCK, NC"},{"lat":35.606269,"lng":-75.767536,"dem_votes":5589,"rep_votes":7301,"total_votes":13002,"precinct_id":"37055","precinct_name":"DARE, NC"},{"lat":35.795131,"lng":-80.207107,"dem_votes":16199,"rep_votes":35387,"total_votes":52047,"precinct_id":"37057","precinct_name":"DAVIDSON, NC"},{"lat":35.929355,"lng":-80.542552,"dem_votes":3651,"rep_votes":10184,"total_votes":13998,"precinct_id":"37059","precinct_name":"DAVIE, NC"},{"lat":34.934403,"lng":-77.933543,"dem_votes":6475,"rep_votes":7840,"total_votes":14390,"precinct_id":"37061","precinct_name":"DUPLIN, NC"},{"lat":36.033828,"lng":-78.878125,"dem_votes":53907,"rep_votes":30150,"total_votes":84604,"precinct_id":"37063","precinct_name":"DURHAM, NC"},{"lat":35.917077,"lng":-77.602742,"dem_votes":11315,"rep_votes":6836,"total_votes":18202,"precinct_id":"37065","precinct_name":"EDGECOMBE, NC"},{"lat":36.132466,"lng":-80.256961,"dem_votes":52457,"rep_votes":67700,"total_votes":120942,"precinct_id":"37067","precinct_name":"FORSYTH, NC"},{"lat":36.088241,"lng":-78.28309,"dem_votes":7454,"rep_votes":8501,"total_votes":16051,"precinct_id":"37069","precinct_name":"FRANKLIN, NC"},{"lat":35.293344,"lng":-81.177256,"dem_votes":19281,"rep_votes":39453,"total_votes":59179,"precinct_id":"37071","precinct_name":"GASTON, NC"},{"lat":36.442135,"lng":-76.702355,"dem_votes":1944,"rep_votes":1480,"total_votes":3446,"precinct_id":"37073","precinct_name":"GATES, NC"},{"lat":35.348364,"lng":-83.830915,"dem_votes":1006,"rep_votes":2304,"total_votes":3361,"precinct_id":"37075","precinct_name":"GRAHAM, NC"},{"lat":36.299884,"lng":-78.657634,"dem_votes":7733,"rep_votes":7364,"total_votes":15194,"precinct_id":"37077","precinct_name":"GRANVILLE, NC"},{"lat":35.481959,"lng":-77.681688,"dem_votes":2478,"rep_votes":3353,"total_votes":5870,"precinct_id":"37079","precinct_name":"GREENE, NC"},{"lat":36.079065,"lng":-79.788665,"dem_votes":80787,"rep_votes":84394,"total_votes":166264,"precinct_id":"37081","precinct_name":"GUILFORD, NC"},{"lat":36.251438,"lng":-77.644842,"dem_votes":10222,"rep_votes":6698,"total_votes":16970,"precinct_id":"37083","precinct_name":"HALIFAX, NC"},{"lat":35.36866,"lng":-78.871665,"dem_votes":9155,"rep_votes":14762,"total_votes":24167,"precinct_id":"37085","precinct_name":"HARNETT, NC"},{"lat":35.558882,"lng":-82.981307,"dem_votes":9793,"rep_votes":12118,"total_votes":22273,"precinct_id":"37087","precinct_name":"HAYWOOD, NC"},{"lat":35.336427,"lng":-82.479583,"dem_votes":12562,"rep_votes":25688,"total_votes":38607,"precinct_id":"37089","precinct_name":"HENDERSON, NC"},{"lat":36.363517,"lng":-76.981616,"dem_votes":5484,"rep_votes":2382,"total_votes":7897,"precinct_id":"37091","precinct_name":"HERTFORD, NC"},{"lat":35.017233,"lng":-79.241964,"dem_votes":5017,"rep_votes":3439,"total_votes":8582,"precinct_id":"37093","precinct_name":"HOKE, NC"},{"lat":35.408157,"lng":-76.153687,"dem_votes":1088,"rep_votes":1132,"total_votes":2237,"precinct_id":"37095","precinct_name":"HYDE, NC"},{"lat":35.806251,"lng":-80.874524,"dem_votes":15434,"rep_votes":29853,"total_votes":45586,"precinct_id":"37097","precinct_name":"IREDELL, NC"},{"lat":35.285454,"lng":-83.123966,"dem_votes":5722,"rep_votes":6237,"total_votes":12121,"precinct_id":"37099","precinct_name":"JACKSON, NC"},{"lat":35.513419,"lng":-78.367348,"dem_votes":13704,"rep_votes":27212,"total_votes":41155,"precinct_id":"37101","precinct_name":"JOHNSTON, NC"},{"lat":35.032268,"lng":-77.356195,"dem_votes":1822,"rep_votes":2114,"total_votes":3964,"precinct_id":"37103","precinct_name":"JONES, NC"},{"lat":35.476336,"lng":-79.172117,"dem_votes":6785,"rep_votes":9406,"total_votes":16283,"precinct_id":"37105","precinct_name":"LEE, NC"},{"lat":35.240066,"lng":-77.635514,"dem_votes":9527,"rep_votes":11512,"total_votes":21163,"precinct_id":"37107","precinct_name":"LENOIR, NC"},{"lat":35.488491,"lng":-81.226893,"dem_votes":8412,"rep_votes":15951,"total_votes":24529,"precinct_id":"37109","precinct_name":"LINCOLN, NC"},{"lat":35.152959,"lng":-83.421901,"dem_votes":4683,"rep_votes":8406,"total_votes":13234,"precinct_id":"37113","precinct_name":"MACON, NC"},{"lat":35.864206,"lng":-82.712631,"dem_votes":3505,"rep_votes":4676,"total_votes":8325,"precinct_id":"37115","precinct_name":"MADISON, NC"},{"lat":35.847301,"lng":-77.119602,"dem_votes":4929,"rep_votes":4420,"total_votes":9366,"precinct_id":"37117","precinct_name":"MARTIN, NC"},{"lat":35.682271,"lng":-82.048044,"dem_votes":4747,"rep_votes":9109,"total_votes":14011,"precinct_id":"37111","precinct_name":"MCDOWELL, NC"},{"lat":35.246862,"lng":-80.833832,"dem_votes":126911,"rep_votes":134068,"total_votes":263036,"precinct_id":"37119","precinct_name":"MECKLENBURG, NC"},{"lat":36.013102,"lng":-82.163554,"dem_votes":1535,"rep_votes":4984,"total_votes":6600,"precinct_id":"37121","precinct_name":"MITCHELL, NC"},{"lat":35.327548,"lng":-79.910752,"dem_votes":3979,"rep_votes":4946,"total_votes":8974,"precinct_id":"37123","precinct_name":"MONTGOMERY, NC"},{"lat":35.308273,"lng":-79.492723,"dem_votes":11232,"rep_votes":19882,"total_votes":31301,"precinct_id":"37125","precinct_name":"MOORE, NC"},{"lat":35.965945,"lng":-77.987555,"dem_votes":12376,"rep_votes":17995,"total_votes":30513,"precinct_id":"37127","precinct_name":"NASH, NC"},{"lat":34.183445,"lng":-77.864204,"dem_votes":29292,"rep_votes":36503,"total_votes":66319,"precinct_id":"37129","precinct_name":"NEW HANOVER, NC"},{"lat":36.421774,"lng":-77.398352,"dem_votes":5513,"rep_votes":2667,"total_votes":8200,"precinct_id":"37131","precinct_name":"NORTHAMPTON, NC"},{"lat":34.763109,"lng":-77.499469,"dem_votes":10269,"rep_votes":19657,"total_votes":30215,"precinct_id":"37133","precinct_name":"ONSLOW, NC"},{"lat":36.062525,"lng":-79.120033,"dem_votes":30921,"rep_votes":17930,"total_votes":49344,"precinct_id":"37135","precinct_name":"ORANGE, NC"},{"lat":35.147575,"lng":-76.665268,"dem_votes":2188,"rep_votes":2999,"total_votes":5242,"precinct_id":"37137","precinct_name":"PAMLICO, NC"},{"lat":36.265199,"lng":-76.260691,"dem_votes":5874,"rep_votes":4943,"total_votes":10903,"precinct_id":"37139","precinct_name":"PASQUOTANK, NC"},{"lat":34.512556,"lng":-77.888106,"dem_votes":6415,"rep_votes":7661,"total_votes":14154,"precinct_id":"37141","precinct_name":"PENDER, NC"},{"lat":36.180897,"lng":-76.403244,"dem_votes":2033,"rep_votes":2230,"total_votes":4306,"precinct_id":"37143","precinct_name":"PERQUIMANS, NC"},{"lat":36.386356,"lng":-78.96563,"dem_votes":5042,"rep_votes":6722,"total_votes":11833,"precinct_id":"37145","precinct_name":"PERSON, NC"},{"lat":35.59249,"lng":-77.372739,"dem_votes":19685,"rep_votes":23192,"total_votes":43075,"precinct_id":"37147","precinct_name":"PITT, NC"},{"lat":35.277901,"lng":-82.167621,"dem_votes":3114,"rep_votes":5074,"total_votes":8303,"precinct_id":"37149","precinct_name":"POLK, NC"},{"lat":35.709915,"lng":-79.806215,"dem_votes":11366,"rep_votes":30959,"total_votes":42696,"precinct_id":"37151","precinct_name":"RANDOLPH, NC"},{"lat":35.004636,"lng":-79.755695,"dem_votes":7935,"rep_votes":6263,"total_votes":14269,"precinct_id":"37153","precinct_name":"RICHMOND, NC"},{"lat":34.63921,"lng":-79.100881,"dem_votes":17834,"rep_votes":11721,"total_votes":29747,"precinct_id":"37155","precinct_name":"ROBESON, NC"},{"lat":36.381806,"lng":-79.782754,"dem_votes":13260,"rep_votes":18979,"total_votes":32528,"precinct_id":"37157","precinct_name":"ROCKINGHAM, NC"},{"lat":35.641355,"lng":-80.521721,"dem_votes":14891,"rep_votes":28922,"total_votes":44133,"precinct_id":"37159","precinct_name":"ROWAN, NC"},{"lat":35.402747,"lng":-81.919582,"dem_votes":7697,"rep_votes":13755,"total_votes":21716,"precinct_id":"37161","precinct_name":"RUTHERFORD, NC"},{"lat":34.989298,"lng":-78.371261,"dem_votes":8768,"rep_votes":10410,"total_votes":19239,"precinct_id":"37163","precinct_name":"SAMPSON, NC"},{"lat":34.840023,"lng":-79.477337,"dem_votes":5627,"rep_votes":3740,"total_votes":9403,"precinct_id":"37165","precinct_name":"SCOTLAND, NC"},{"lat":35.310449,"lng":-80.254374,"dem_votes":7066,"rep_votes":15548,"total_votes":22818,"precinct_id":"37167","precinct_name":"STANLY, NC"},{"lat":36.393797,"lng":-80.269921,"dem_votes":5030,"rep_votes":12028,"total_votes":17182,"precinct_id":"37169","precinct_name":"STOKES, NC"},{"lat":36.415416,"lng":-80.686463,"dem_votes":7757,"rep_votes":15401,"total_votes":23358,"precinct_id":"37171","precinct_name":"SURRY, NC"},{"lat":35.568849,"lng":-83.465614,"dem_votes":2097,"rep_votes":2224,"total_votes":4370,"precinct_id":"37173","precinct_name":"SWAIN, NC"},{"lat":35.210103,"lng":-82.816666,"dem_votes":5044,"rep_votes":9011,"total_votes":14225,"precinct_id":"37175","precinct_name":"TRANSYLVANIA, NC"},{"lat":35.87042,"lng":-76.165345,"dem_votes":849,"rep_votes":706,"total_votes":1566,"precinct_id":"37177","precinct_name":"TYRRELL, NC"},{"lat":34.99182,"lng":-80.530426,"dem_votes":14890,"rep_votes":31876,"total_votes":47161,"precinct_id":"37179","precinct_name":"UNION, NC"},{"lat":36.365481,"lng":-78.405434,"dem_votes":7092,"rep_votes":5564,"total_votes":12701,"precinct_id":"37181","precinct_name":"VANCE, NC"},{"lat":35.789846,"lng":-78.650624,"dem_votes":123466,"rep_votes":142494,"total_votes":268220,"precinct_id":"37183","precinct_name":"WAKE, NC"},{"lat":36.398105,"lng":-78.099899,"dem_votes":4576,"rep_votes":2202,"total_votes":6795,"precinct_id":"37185","precinct_name":"WARREN, NC"},{"lat":35.844713,"lng":-76.572291,"dem_votes":2704,"rep_votes":2169,"total_votes":4890,"precinct_id":"37187","precinct_name":"WASHINGTON, NC"},{"lat":36.235368,"lng":-81.709888,"dem_votes":7959,"rep_votes":10438,"total_votes":18723,"precinct_id":"37189","precinct_name":"WATAUGA, NC"},{"lat":35.35419,"lng":-78.00867,"dem_votes":13005,"rep_votes":20758,"total_votes":33884,"precinct_id":"37191","precinct_name":"WAYNE, NC"},{"lat":36.208883,"lng":-81.166095,"dem_votes":7226,"rep_votes":16826,"total_votes":24323,"precinct_id":"37193","precinct_name":"WILKES, NC"},{"lat":35.700357,"lng":-77.921598,"dem_votes":11266,"rep_votes":13466,"total_votes":24826,"precinct_id":"37195","precinct_name":"WILSON, NC"},{"lat":36.158765,"lng":-80.665164,"dem_votes":3127,"rep_votes":10435,"total_votes":13682,"precinct_id":"37197","precinct_name":"YADKIN, NC"},{"lat":35.889326,"lng":-82.303954,"dem_votes":3714,"rep_votes":4970,"total_votes":8764,"precinct_id":"37199","precinct_name":"YANCEY, NC"}]