[{"lat":36.043954,"lng":-79.400573,"dem_votes":29833,"rep_votes":38815,"total_votes":71157,"precinct_id":"37001","precinct_name":"ALAMANCE, NC"},{"lat":35.920951,"lng":-81.177467,"dem_votes":3767,"rep_votes":13893,"total_votes":18271,"precinct_id":"37003","precinct_name":"ALEXANDER, NC"},{"lat":36.489356,"lng":-81.132299,"dem_votes":1306,"rep_votes":3814,"total_votes":5315,"precinct_id":"37005","precinct_name":"ALLEGHANY, NC"},{"lat":34.974972,"lng":-80.109763,"dem_votes":5859,"rep_votes":4506,"total_votes":10545,"precinct_id":"37007","precinct_name":"ANSON, NC"},{"lat":36.443469,"lng":-81.499334,"dem_votes":3500,"rep_votes":9412,"total_votes":13424,"precinct_id":"37009","precinct_name":"ASHE, NC"},{"lat":36.07209,"lng":-81.920285,"dem_votes":1689,"rep_votes":6298,"total_votes":8249,"precinct_id":"37011","precinct_name":"AVERY, NC"},{"lat":35.482313,"lng":-76.842014,"dem_votes":8764,"rep_votes":14543,"total_votes":23938,"precinct_id":"37013","precinct_name":"BEAUFORT, NC"},{"lat":36.059043,"lng":-76.962364,"dem_votes":5778,"rep_votes":3456,"total_votes":9347,"precinct_id":"37015","precinct_name":"BERTIE, NC"},{"lat":34.591938,"lng":-78.539489,"dem_votes":7058,"rep_votes":8550,"total_votes":15897,"precinct_id":"37017","precinct_name":"BLADEN, NC"},{"lat":34.038754,"lng":-78.227765,"dem_votes":23282,"rep_votes":42720,"total_votes":68351,"precinct_id":"37019","precinct_name":"BRUNSWICK, NC"},{"lat":35.609371,"lng":-82.530423,"dem_votes":75452,"rep_votes":55716,"total_votes":138947,"precinct_id":"37021","precinct_name":"BUNCOMBE, NC"},{"lat":35.746182,"lng":-81.70618,"dem_votes":11251,"rep_votes":26238,"total_votes":38920,"precinct_id":"37023","precinct_name":"BURKE, NC"},{"lat":35.388346,"lng":-80.552728,"dem_votes":35521,"rep_votes":53819,"total_votes":93289,"precinct_id":"37025","precinct_name":"CABARRUS, NC"},{"lat":35.966396,"lng":-81.51254,"dem_votes":8425,"rep_votes":26621,"total_votes":36320,"precinct_id":"37027","precinct_name":"CALDWELL, NC"},{"lat":36.342344,"lng":-76.162488,"dem_votes":1274,"rep_votes":3546,"total_votes":5006,"precinct_id":"37029","precinct_name":"CAMDEN, NC"},{"lat":34.858343,"lng":-76.53586,"dem_votes":9939,"rep_votes":26569,"total_votes":37781,"precinct_id":"37031","precinct_name":"CARTERET, NC"},{"lat":36.394298,"lng":-79.339609,"dem_votes":4792,"rep_votes":6026,"total_votes":11070,"precinct_id":"37033","precinct_name":"CASWELL, NC"},{"lat":35.661883,"lng":-81.214906,"dem_votes":21216,"rep_votes":48324,"total_votes":72351,"precinct_id":"37035","precinct_name":"CATAWBA, NC"},{"lat":35.704994,"lng":-79.251454,"dem_votes":21065,"rep_votes":17105,"total_votes":39849,"precinct_id":"37037","precinct_name":"CHATHAM, NC"},{"lat":35.13715,"lng":-84.061449,"dem_votes":2860,"rep_votes":10844,"total_votes":14181,"precinct_id":"37039","precinct_name":"CHEROKEE, NC"},{"lat":36.128979,"lng":-76.602752,"dem_votes":2992,"rep_votes":4014,"total_votes":7228,"precinct_id":"37041","precinct_name":"CHOWAN, NC"},{"lat":35.052997,"lng":-83.752264,"dem_votes":1367,"rep_votes":4437,"total_votes":6010,"precinct_id":"37043","precinct_name":"CLAY, NC"},{"lat":35.33463,"lng":-81.557114,"dem_votes":14964,"rep_votes":28479,"total_votes":44673,"precinct_id":"37045","precinct_name":"CLEVELAND, NC"},{"lat":34.261602,"lng":-78.639308,"dem_votes":9063,"rep_votes":14272,"total_votes":23732,"precinct_id":"37047","precinct_name":"COLUMBUS, NC"},{"lat":35.116829,"lng":-77.08132,"dem_votes":17630,"rep_votes":27731,"total_votes":47001,"precinct_id":"37049","precinct_name":"CRAVEN, NC"},{"lat":35.050192,"lng":-78.828719,"dem_votes":71605,"rep_votes":51265,"total_votes":127506,"precinct_id":"37051","precinct_name":"CUMBERLAND, NC"},{"lat":36.372174,"lng":-75.941224,"dem_votes":2913,"rep_votes":9163,"total_votes":12669,"precinct_id":"37053","precinct_name":"CURRITUCK, NC"},{"lat":35.606269,"lng":-75.767536,"dem_votes":7222,"rep_votes":11460,"total_votes":19609,"precinct_id":"37055","precinct_name":"DARE, NC"},{"lat":35.795131,"lng":-80.207107,"dem_votes":18109,"rep_votes":54317,"total_votes":74856,"precinct_id":"37057","precinct_name":"DAVIDSON, NC"},{"lat":35.929355,"lng":-80.542552,"dem_votes":5270,"rep_votes":15602,"total_votes":21756,"precinct_id":"37059","precinct_name":"DAVIE, NC"},{"lat":34.934403,"lng":-77.933543,"dem_votes":8283,"rep_votes":12217,"total_votes":20856,"precinct_id":"37061","precinct_name":"DUPLIN, NC"},{"lat":36.033828,"lng":-78.878125,"dem_votes":121250,"rep_votes":28350,"total_votes":156134,"precinct_id":"37063","precinct_name":"DURHAM, NC"},{"lat":35.917077,"lng":-77.602742,"dem_votes":16224,"rep_votes":8261,"total_votes":24886,"precinct_id":"37065","precinct_name":"EDGECOMBE, NC"},{"lat":36.132466,"lng":-80.256961,"dem_votes":94464,"rep_votes":75975,"total_votes":178312,"precinct_id":"37067","precinct_name":"FORSYTH, NC"},{"lat":36.088241,"lng":-78.28309,"dem_votes":12874,"rep_votes":16368,"total_votes":30368,"precinct_id":"37069","precinct_name":"FRANKLIN, NC"},{"lat":35.293344,"lng":-81.177256,"dem_votes":31177,"rep_votes":61798,"total_votes":96431,"precinct_id":"37071","precinct_name":"GASTON, NC"},{"lat":36.442135,"lng":-76.702355,"dem_votes":2385,"rep_votes":2874,"total_votes":5392,"precinct_id":"37073","precinct_name":"GATES, NC"},{"lat":35.348364,"lng":-83.830915,"dem_votes":768,"rep_votes":3283,"total_votes":4168,"precinct_id":"37075","precinct_name":"GRAHAM, NC"},{"lat":36.299884,"lng":-78.657634,"dem_votes":12909,"rep_votes":13591,"total_votes":27353,"precinct_id":"37077","precinct_name":"GRANVILLE, NC"},{"lat":35.481959,"lng":-77.681688,"dem_votes":3605,"rep_votes":4374,"total_votes":8095,"precinct_id":"37079","precinct_name":"GREENE, NC"},{"lat":36.079065,"lng":-79.788665,"dem_votes":149248,"rep_votes":98062,"total_votes":257405,"precinct_id":"37081","precinct_name":"GUILFORD, NC"},{"lat":36.251438,"lng":-77.644842,"dem_votes":15748,"rep_votes":9031,"total_votes":25167,"precinct_id":"37083","precinct_name":"HALIFAX, NC"},{"lat":35.36866,"lng":-78.871665,"dem_votes":16737,"rep_votes":27614,"total_votes":46065,"precinct_id":"37085","precinct_name":"HARNETT, NC"},{"lat":35.558882,"lng":-82.981307,"dem_votes":10473,"rep_votes":18929,"total_votes":30727,"precinct_id":"37087","precinct_name":"HAYWOOD, NC"},{"lat":35.336427,"lng":-82.479583,"dem_votes":19827,"rep_votes":35809,"total_votes":58176,"precinct_id":"37089","precinct_name":"HENDERSON, NC"},{"lat":36.363517,"lng":-76.981616,"dem_votes":6910,"rep_votes":3099,"total_votes":10186,"precinct_id":"37091","precinct_name":"HERTFORD, NC"},{"lat":35.017233,"lng":-79.241964,"dem_votes":9726,"rep_votes":7760,"total_votes":18230,"precinct_id":"37093","precinct_name":"HOKE, NC"},{"lat":35.408157,"lng":-76.153687,"dem_votes":965,"rep_votes":1288,"total_votes":2304,"precinct_id":"37095","precinct_name":"HYDE, NC"},{"lat":35.806251,"lng":-80.874524,"dem_votes":24734,"rep_votes":54754,"total_votes":82567,"precinct_id":"37097","precinct_name":"IREDELL, NC"},{"lat":35.285454,"lng":-83.123966,"dem_votes":7713,"rep_votes":9870,"total_votes":18713,"precinct_id":"37099","precinct_name":"JACKSON, NC"},{"lat":35.513419,"lng":-78.367348,"dem_votes":28362,"rep_votes":54372,"total_votes":85909,"precinct_id":"37101","precinct_name":"JOHNSTON, NC"},{"lat":35.032268,"lng":-77.356195,"dem_votes":2065,"rep_votes":2974,"total_votes":5135,"precinct_id":"37103","precinct_name":"JONES, NC"},{"lat":35.476336,"lng":-79.172117,"dem_votes":10469,"rep_votes":13712,"total_votes":25084,"precinct_id":"37105","precinct_name":"LEE, NC"},{"lat":35.240066,"lng":-77.635514,"dem_votes":12634,"rep_votes":13613,"total_votes":26807,"precinct_id":"37107","precinct_name":"LENOIR, NC"},{"lat":35.488491,"lng":-81.226893,"dem_votes":9897,"rep_votes":28806,"total_votes":40023,"precinct_id":"37109","precinct_name":"LINCOLN, NC"},{"lat":35.152959,"lng":-83.421901,"dem_votes":4876,"rep_votes":12127,"total_votes":17734,"precinct_id":"37113","precinct_name":"MACON, NC"},{"lat":35.864206,"lng":-82.712631,"dem_votes":3926,"rep_votes":6783,"total_votes":11269,"precinct_id":"37115","precinct_name":"MADISON, NC"},{"lat":35.847301,"lng":-77.119602,"dem_votes":5846,"rep_votes":5897,"total_votes":11964,"precinct_id":"37117","precinct_name":"MARTIN, NC"},{"lat":35.682271,"lng":-82.048044,"dem_votes":4667,"rep_votes":14568,"total_votes":19875,"precinct_id":"37111","precinct_name":"MCDOWELL, NC"},{"lat":35.246862,"lng":-80.833832,"dem_votes":294562,"rep_votes":155518,"total_votes":472857,"precinct_id":"37119","precinct_name":"MECKLENBURG, NC"},{"lat":36.013102,"lng":-82.163554,"dem_votes":1596,"rep_votes":6282,"total_votes":8096,"precinct_id":"37121","precinct_name":"MITCHELL, NC"},{"lat":35.327548,"lng":-79.910752,"dem_votes":4150,"rep_votes":7130,"total_votes":11540,"precinct_id":"37123","precinct_name":"MONTGOMERY, NC"},{"lat":35.308273,"lng":-79.492723,"dem_votes":16329,"rep_votes":30490,"total_votes":48692,"precinct_id":"37125","precinct_name":"MOORE, NC"},{"lat":35.965945,"lng":-77.987555,"dem_votes":23235,"rep_votes":23319,"total_votes":47665,"precinct_id":"37127","precinct_name":"NASH, NC"},{"lat":34.183445,"lng":-77.864204,"dem_votes":50979,"rep_votes":55344,"total_votes":111905,"precinct_id":"37129","precinct_name":"NEW HANOVER, NC"},{"lat":36.421774,"lng":-77.398352,"dem_votes":6144,"rep_votes":3582,"total_votes":9848,"precinct_id":"37131","precinct_name":"NORTHAMPTON, NC"},{"lat":34.763109,"lng":-77.499469,"dem_votes":17514,"rep_votes":37122,"total_votes":57135,"precinct_id":"37133","precinct_name":"ONSLOW, NC"},{"lat":36.062525,"lng":-79.120033,"dem_votes":59923,"rep_votes":18557,"total_votes":82340,"precinct_id":"37135","precinct_name":"ORANGE, NC"},{"lat":35.147575,"lng":-76.665268,"dem_votes":2448,"rep_votes":4258,"total_votes":6870,"precinct_id":"37137","precinct_name":"PAMLICO, NC"},{"lat":36.265199,"lng":-76.260691,"dem_votes":8615,"rep_votes":8180,"total_votes":17391,"precinct_id":"37139","precinct_name":"PASQUOTANK, NC"},{"lat":34.512556,"lng":-77.888106,"dem_votes":9354,"rep_votes":17639,"total_votes":27885,"precinct_id":"37141","precinct_name":"PENDER, NC"},{"lat":36.180897,"lng":-76.403244,"dem_votes":2319,"rep_votes":4177,"total_votes":6708,"precinct_id":"37143","precinct_name":"PERQUIMANS, NC"},{"lat":36.386356,"lng":-78.96563,"dem_votes":7833,"rep_votes":11185,"total_votes":19615,"precinct_id":"37145","precinct_name":"PERSON, NC"},{"lat":35.59249,"lng":-77.372739,"dem_votes":41824,"rep_votes":35691,"total_votes":80527,"precinct_id":"37147","precinct_name":"PITT, NC"},{"lat":35.277901,"lng":-82.167621,"dem_votes":3735,"rep_votes":6768,"total_votes":10934,"precinct_id":"37149","precinct_name":"POLK, NC"},{"lat":35.709915,"lng":-79.806215,"dem_votes":13194,"rep_votes":49430,"total_votes":64575,"precinct_id":"37151","precinct_name":"RANDOLPH, NC"},{"lat":35.004636,"lng":-79.755695,"dem_votes":8501,"rep_votes":10383,"total_votes":19328,"precinct_id":"37153","precinct_name":"RICHMOND, NC"},{"lat":34.63921,"lng":-79.100881,"dem_votes":19016,"rep_votes":20762,"total_votes":40858,"precinct_id":"37155","precinct_name":"ROBESON, NC"},{"lat":36.381806,"lng":-79.782754,"dem_votes":14228,"rep_votes":26830,"total_votes":42278,"precinct_id":"37157","precinct_name":"ROCKINGHAM, NC"},{"lat":35.641355,"lng":-80.521721,"dem_votes":19400,"rep_votes":42810,"total_votes":64369,"precinct_id":"37159","precinct_name":"ROWAN, NC"},{"lat":35.402747,"lng":-81.919582,"dem_votes":7512,"rep_votes":21871,"total_votes":30307,"precinct_id":"37161","precinct_name":"RUTHERFORD, NC"},{"lat":34.989298,"lng":-78.371261,"dem_votes":10547,"rep_votes":14838,"total_votes":25928,"precinct_id":"37163","precinct_name":"SAMPSON, NC"},{"lat":34.840023,"lng":-79.477337,"dem_votes":7319,"rep_votes":6256,"total_votes":13928,"precinct_id":"37165","precinct_name":"SCOTLAND, NC"},{"lat":35.310449,"lng":-80.254374,"dem_votes":7094,"rep_votes":21964,"total_votes":29917,"precinct_id":"37167","precinct_name":"STANLY, NC"},{"lat":36.393797,"lng":-80.269921,"dem_votes":4665,"rep_votes":17116,"total_votes":22550,"precinct_id":"37169","precinct_name":"STOKES, NC"},{"lat":36.415416,"lng":-80.686463,"dem_votes":7488,"rep_votes":23671,"total_votes":32196,"precinct_id":"37171","precinct_name":"SURRY, NC"},{"lat":35.568849,"lng":-83.465614,"dem_votes":2196,"rep_votes":3565,"total_votes":6124,"precinct_id":"37173","precinct_name":"SWAIN, NC"},{"lat":35.210103,"lng":-82.816666,"dem_votes":6558,"rep_votes":10520,"total_votes":17869,"precinct_id":"37175","precinct_name":"TRANSYLVANIA, NC"},{"lat":35.87042,"lng":-76.165345,"dem_votes":720,"rep_votes":975,"total_votes":1739,"precinct_id":"37177","precinct_name":"TYRRELL, NC"},{"lat":34.99182,"lng":-80.530426,"dem_votes":34337,"rep_votes":66707,"total_votes":105710,"precinct_id":"37179","precinct_name":"UNION, NC"},{"lat":36.365481,"lng":-78.405434,"dem_votes":12229,"rep_votes":7332,"total_votes":19977,"precinct_id":"37181","precinct_name":"VANCE, NC"},{"lat":35.789846,"lng":-78.650624,"dem_votes":302736,"rep_votes":196082,"total_votes":527624,"precinct_id":"37183","precinct_name":"WAKE, NC"},{"lat":36.398105,"lng":-78.099899,"dem_votes":6413,"rep_votes":3214,"total_votes":9842,"precinct_id":"37185","precinct_name":"WARREN, NC"},{"lat":35.844713,"lng":-76.572291,"dem_votes":3510,"rep_votes":2564,"total_votes":6165,"precinct_id":"37187","precinct_name":"WASHINGTON, NC"},{"lat":36.235368,"lng":-81.709888,"dem_votes":14138,"rep_votes":13697,"total_votes":29985,"precinct_id":"37189","precinct_name":"WATAUGA, NC"},{"lat":35.35419,"lng":-78.00867,"dem_votes":21770,"rep_votes":27540,"total_votes":50689,"precinct_id":"37191","precinct_name":"WAYNE, NC"},{"lat":36.208883,"lng":-81.166095,"dem_votes":6638,"rep_votes":23752,"total_votes":31296,"precinct_id":"37193","precinct_name":"WILKES, NC"},{"lat":35.700357,"lng":-77.921598,"dem_votes":19663,"rep_votes":17531,"total_votes":38135,"precinct_id":"37195","precinct_name":"WILSON, NC"},{"lat":36.158765,"lng":-80.665164,"dem_votes":3160,"rep_votes":13880,"total_votes":17624,"precinct_id":"37197","precinct_name":"YADKIN, NC"},{"lat":35.889326,"lng":-82.303954,"dem_votes":3196,"rep_votes":6385,"total_votes":9960,"precinct_id":"37199","precinct_name":"YANCEY, NC"}]